City,Lat,Lng,Temp,Hum,cloud,Win Speed,Country,Date
upernavik,72.7868,-56.1549,29.21,92,100,7.52,GL,1635654548
atuona,-9.8,-139.0333,78.85,74,21,18.75,PF,1635654512
airai,-8.9266,125.4092,75.24,58,88,1.48,TL,1635654259
tuktoyaktuk,69.4541,-133.0374,17.6,100,75,10.36,CA,1635654549
carora,10.1755,-70.0827,72.84,91,100,2.46,VE,1635654549
osterburg,52.7833,11.7667,51.13,91,98,7.38,DE,1635654550
netolice,49.0493,14.197,52.93,67,98,2.71,CZ,1635654550
busselton,-33.65,115.3333,74.05,57,97,7.87,AU,1635654551
haines junction,60.7522,-137.5108,40.95,52,100,12.66,CA,1635654551
mosquera,4.7059,-74.2302,55.49,94,40,3.44,CO,1635654552
bilma,18.6853,12.9164,75.96,31,73,13.6,NE,1635654552
hobart,-42.8794,147.3294,64.02,52,75,4.0,AU,1635654270
avarua,-21.2078,-159.775,75.25,64,67,12.66,CK,1635654492
arraial do cabo,-22.9661,-42.0278,70.61,89,100,15.52,BR,1635654553
soure,-0.7167,-48.5233,80.31,80,75,9.69,BR,1635654554
pak phanang,8.3511,100.202,81.07,80,100,4.38,TH,1635654554
ancud,-41.8697,-73.8203,44.13,69,1,5.68,CL,1635654554
mataura,-46.1927,168.8643,46.24,88,100,10.27,NZ,1635654555
husavik,66.0449,-17.3389,37.31,96,100,23.26,IS,1635654555
kuminskiy,58.6667,66.5667,18.1,96,93,4.09,RU,1635654556
lompoc,34.6391,-120.4579,59.56,90,90,4.61,US,1635654556
carnarvon,-24.8667,113.6333,78.87,57,0,17.27,AU,1635654557
dubbo,-32.25,148.6167,73.53,33,0,8.05,AU,1635654557
athens,37.9795,23.7162,61.16,77,55,5.99,GR,1635654482
srednekolymsk,67.45,153.6833,0.32,93,100,8.34,RU,1635654559
krasnorechenskiy,44.6265,135.3532,51.1,53,63,3.33,RU,1635654559
havre-saint-pierre,50.2334,-63.5986,46.99,93,90,9.22,CA,1635654560
jamestown,42.097,-79.2353,51.12,99,90,3.44,US,1635654560
saint-augustin,51.226,-58.6502,42.33,61,60,3.29,CA,1635654561
hermanus,-34.4187,19.2345,59.81,84,89,5.41,ZA,1635654561
punta arenas,-53.15,-70.9167,39.31,81,0,0.0,CL,1635654561
shingu,33.7333,135.9833,72.59,84,100,7.47,JP,1635654562
sinnamary,5.3833,-52.95,78.66,83,27,6.26,GF,1635654562
cape town,-33.9258,18.4232,60.12,88,0,4.61,ZA,1635654323
kodiak,57.79,-152.4072,44.76,84,100,32.73,US,1635654563
pisco,-13.7,-76.2167,62.65,88,90,8.05,PE,1635654564
sevojno,43.845,19.8986,41.65,87,0,0.0,RS,1635654564
hofn,64.2539,-15.2082,42.21,62,85,14.72,IS,1635654338
rosarito,32.3333,-117.0333,61.93,81,86,4.43,MX,1635654565
amahai,-3.3333,128.9167,85.03,66,77,6.38,ID,1635654542
mocuba,-16.8392,36.9856,70.83,72,0,4.21,MZ,1635654566
rikitea,-23.1203,-134.9692,74.55,86,100,20.2,PF,1635654488
kapaa,22.0752,-159.319,78.78,82,90,4.61,US,1635654567
sola,-13.8833,167.55,81.36,67,10,12.39,VU,1635654567
vaasa,63.096,21.6158,46.42,93,90,4.61,FI,1635654568
bluff,-46.6,168.3333,50.9,62,95,24.43,NZ,1635654568
geraldton,-28.7667,114.6,75.61,50,15,16.11,AU,1635654508
chuncheng,22.1731,111.7886,77.02,69,92,4.83,CN,1635654569
coihaique,-45.5752,-72.0662,46.35,46,0,5.75,CL,1635654569
pimenta bueno,-11.6725,-61.1936,75.69,72,30,1.99,BR,1635654570
ushuaia,-54.8,-68.3,44.26,57,0,8.05,AR,1635654571
okhotsk,59.3833,143.3,17.53,65,83,22.06,RU,1635654572
mayo,38.8876,-76.5119,57.18,91,75,1.01,US,1635654337
puerto ayora,-0.7393,-90.3518,70.21,87,99,7.05,EC,1635654572
touros,-5.1989,-35.4608,76.1,77,96,13.13,BR,1635654573
cockburn town,21.4612,-71.1419,82.58,60,85,10.07,TC,1635654491
albany,42.6001,-73.9662,54.75,95,100,5.23,US,1635654544
ribeira grande,38.5167,-28.7,70.09,91,100,11.34,PT,1635654574
pangani,-5.4333,38.9667,75.92,84,32,5.75,TZ,1635654575
pemangkat,1.1667,108.9667,84.88,71,44,4.76,ID,1635654576
bowen,-20.0167,148.2333,95.22,65,11,13.76,AU,1635654576
thompson,55.7435,-97.8558,33.96,93,90,4.61,CA,1635654384
bud,39.447,-86.1758,52.12,94,95,6.69,US,1635654577
ponta do sol,32.6667,-17.1,70.72,69,73,6.42,PT,1635654577
port alfred,-33.5906,26.891,64.69,79,42,3.76,ZA,1635654578
vidnoye,55.5524,37.7097,41.25,92,55,4.47,RU,1635654578
hilo,19.7297,-155.09,80.28,81,75,4.61,US,1635654579
tiksi,71.6872,128.8694,14.14,73,99,14.32,RU,1635654579
san javier,37.8063,-0.8374,69.8,79,0,4.0,ES,1635654580
nortelandia,-14.4547,-56.8028,74.71,86,100,2.19,BR,1635654580
launceston,-41.45,147.1667,64.04,67,75,10.0,AU,1635654580
cidreira,-30.1811,-50.2056,67.95,88,83,20.87,BR,1635654581
fortuna,40.5982,-124.1573,58.42,74,90,0.0,US,1635654581
shalinskoye,55.7228,93.7594,36.03,69,99,7.67,RU,1635654582
severo-kurilsk,50.6789,156.125,39.69,95,79,21.52,RU,1635654582
yellowknife,62.456,-114.3525,28.42,94,75,6.91,CA,1635654583
narsaq,60.9167,-46.05,26.82,73,25,5.06,GL,1635654583
saldanha,-33.0117,17.9442,57.25,91,96,10.09,ZA,1635654584
athabasca,54.7169,-113.2854,28.22,58,0,6.64,CA,1635654584
gat,31.61,34.7642,73.4,56,100,8.55,IL,1635654585
muros,42.7762,-9.0603,67.08,92,98,18.97,ES,1635654585
chiquilistlan,20.2,-103.8167,60.13,85,94,3.15,MX,1635654586
spencer,43.1414,-95.1444,44.76,77,63,19.64,US,1635654586
new norfolk,-42.7826,147.0587,63.66,45,100,5.01,AU,1635654587
posse,-14.0931,-46.3694,72.91,66,89,1.48,BR,1635654359
melito di porto salvo,37.9222,15.7714,63.73,94,90,4.61,IT,1635654588
georgetown,5.4112,100.3354,84.15,81,40,8.05,MY,1635654588
mikhaylovka,50.06,43.2379,39.0,82,0,2.95,RU,1635654588
waipawa,-41.4122,175.5153,60.46,59,0,18.81,NZ,1635654589
lorengau,-2.0226,147.2712,83.73,77,100,6.71,PG,1635654589
asau,46.4333,26.4,35.76,96,0,2.26,RO,1635654590
tura,25.5198,90.2201,76.21,49,0,2.95,IN,1635654590
gorom-gorom,14.4439,-0.2361,83.82,17,54,6.02,BF,1635654591
ilulissat,69.2167,-51.1,33.82,86,90,10.36,GL,1635654591
chokurdakh,70.6333,147.9167,-2.61,98,100,6.33,RU,1635654592
leninogorsk,54.6026,52.4609,44.1,96,100,9.08,RU,1635654592
patur,20.45,76.9333,73.85,54,4,3.85,IN,1635654593
teknaf,20.8624,92.3058,84.29,65,24,2.28,BD,1635654593
talcahuano,-36.7167,-73.1167,53.28,87,0,6.91,CL,1635654594
bochum,51.4833,7.2167,51.94,86,97,5.01,DE,1635654594
bredasdorp,-34.5322,20.0403,59.29,94,62,1.14,ZA,1635654511
tasiilaq,65.6145,-37.6368,24.96,65,100,3.18,GL,1635654595
vaini,-21.2,-175.2,80.76,78,20,8.05,TO,1635654508
mount isa,-20.7333,139.5,94.77,21,22,10.36,AU,1635654596
kenai,60.5544,-151.2583,43.14,80,90,16.11,US,1635654596
tual,-5.6667,132.75,83.5,71,77,6.46,ID,1635654597
mount gambier,-37.8333,140.7667,64.31,52,90,5.75,AU,1635654597
nuuk,64.1835,-51.7216,36.21,93,90,32.21,GL,1635654598
huadian,42.9633,126.7478,53.29,66,93,5.01,CN,1635654598
port lincoln,-34.7333,135.8667,65.26,51,0,7.16,AU,1635654599
saint austell,50.3383,-4.7658,56.44,94,90,24.16,GB,1635654599
port hedland,-20.3167,118.5667,86.05,51,0,17.27,AU,1635654600
bethel,41.3712,-73.414,57.51,94,90,0.0,US,1635654600
newport,51.5877,-2.9984,56.44,91,100,25.81,GB,1635654579
kaitangata,-46.2817,169.8464,47.16,88,100,16.71,NZ,1635654602
port elizabeth,-33.918,25.5701,59.29,94,0,4.61,ZA,1635654602
chabahar,25.2919,60.643,84.6,42,2,3.27,IR,1635654603
henties bay,-22.116,14.2845,55.85,92,5,3.4,NA,1635654604
chitipa,-9.7024,33.2697,73.26,58,22,4.0,MW,1635654605
barrow,71.2906,-156.7887,17.62,93,90,3.44,US,1635654606
constitucion,-35.3333,-72.4167,54.46,85,100,7.11,CL,1635654510
levelland,33.5873,-102.378,64.96,27,0,7.7,US,1635654607
wageningen,51.9667,5.6667,51.17,94,90,6.91,NL,1635654608
baracoa,20.3467,-74.4958,77.77,78,78,4.34,CU,1635654609
los llanos de aridane,28.6585,-17.9182,62.35,67,0,3.0,ES,1635654610
vila franca do campo,37.7167,-25.4333,74.19,94,100,13.78,PT,1635654610
macrohon,10.0797,124.9431,81.91,78,100,11.39,PH,1635654611
owo,7.1962,5.5868,70.95,98,100,2.59,NG,1635654612
mtwara,-10.2667,40.1833,80.85,71,20,8.81,TZ,1635654613
vila velha,-20.3297,-40.2925,71.55,100,75,2.3,BR,1635654613
nikolskoye,59.7035,30.7861,42.87,96,92,5.75,RU,1635654614
xique-xique,-10.8218,-42.7263,77.83,53,32,13.06,BR,1635654614
vila do maio,15.1333,-23.2167,74.19,80,100,14.99,CV,1635654615
saint-philippe,-21.3585,55.7679,78.48,72,27,5.32,RE,1635654615
iqaluit,63.7506,-68.5145,37.13,74,75,11.01,CA,1635654432
wattegama,6.7989,81.4808,83.32,60,70,0.76,LK,1635654616
cayenne,4.9333,-52.3333,82.09,80,55,3.0,GF,1635654548
aquiraz,-3.9014,-38.3911,80.69,84,74,9.13,BR,1635654617
klaksvik,62.2266,-6.589,41.92,87,99,6.78,FO,1635654617
kasongo-lunda,-6.4667,16.8167,68.58,99,100,1.66,CD,1635654618
bathsheba,13.2167,-59.5167,79.11,77,31,11.52,BB,1635654618
araouane,18.9048,-3.5265,78.91,26,85,10.69,ML,1635654619
milkovo,54.7167,158.6167,32.97,64,64,9.91,RU,1635654619
cabo san lucas,22.8909,-109.9124,78.51,76,22,1.99,MX,1635654619
leningradskiy,69.3833,178.4167,-0.06,97,100,7.34,RU,1635654620
maridi,4.9158,29.4742,68.77,95,69,2.89,SS,1635654620
baneh,35.9975,45.8853,55.62,69,100,2.75,IR,1635654621
kruisfontein,-34.0033,24.7314,63.28,71,73,5.03,ZA,1635654621
abha,18.2164,42.5053,55.65,54,0,0.0,SA,1635654622
yar-sale,66.8333,70.8333,3.87,90,9,13.8,RU,1635654622
butaritari,3.0707,172.7902,82.51,74,9,6.44,KI,1635654623
provideniya,64.3833,-173.3,11.97,80,97,13.42,RU,1635654624
glace bay,46.1969,-59.957,47.68,87,90,1.01,CA,1635654625
norman wells,65.282,-126.8329,21.24,93,20,6.91,CA,1635654625
maldonado,-34.6667,-54.9167,65.59,97,0,6.93,UY,1635654626
tubuala,9.5167,-79.0333,77.32,87,100,6.42,PA,1635654626
chapleau,47.8405,-83.4034,37.22,81,0,2.64,CA,1635654626
san patricio,28.017,-97.5169,73.81,47,0,6.82,US,1635654627
east london,-33.0153,27.9116,59.94,88,0,1.14,ZA,1635654506
prince rupert,54.3161,-130.3201,46.09,73,84,13.8,CA,1635654628
victoria,22.2855,114.1577,79.25,73,91,1.99,HK,1635654562
kolvereid,64.8655,11.6047,50.34,66,100,22.12,NO,1635654628
umm lajj,25.0213,37.2685,84.9,48,5,1.25,SA,1635654629
kahului,20.8947,-156.47,78.06,81,20,8.05,US,1635654269
belmonte,-15.8631,-38.8828,77.5,88,58,6.44,BR,1635654630
great falls,47.5002,-111.3008,28.85,90,20,0.0,US,1635654037
saskylakh,71.9167,114.0833,12.85,94,100,10.33,RU,1635654630
severodvinsk,64.5635,39.8302,41.11,91,100,12.88,RU,1635654631
kapit,2.0167,112.9333,90.99,56,55,3.74,MY,1635654631
riga,57.0,24.0833,46.92,87,0,12.66,LV,1635654632
mehamn,71.0357,27.8492,37.62,82,98,13.58,NO,1635654633
ankazoabo,-22.2833,44.5167,75.29,63,68,6.69,MG,1635654633
shahreza,32.0339,51.8794,60.31,37,49,0.63,IR,1635654634
pacific grove,36.6177,-121.9166,59.43,92,20,1.01,US,1635654634
lumphat,13.4878,106.9816,87.35,61,49,7.78,KH,1635654635
portland,45.5234,-122.6762,55.33,40,20,1.01,US,1635654607
akyab,20.15,92.9,84.24,67,4,1.92,MM,1635654636
saint george,37.1041,-113.5841,67.53,49,1,1.01,US,1635654636
berbera,10.4396,45.0143,84.6,64,59,11.79,SO,1635654637
castro,-24.7911,-50.0119,59.2,95,100,9.78,BR,1635654460
hasaki,35.7333,140.8333,61.09,79,94,6.8,JP,1635654638
capiibary,-24.8,-56.0333,65.48,98,96,4.05,PY,1635654639
dingle,10.9995,122.6711,84.18,73,97,14.25,PH,1635654639
salvador,13.8333,-88.9167,73.8,92,79,2.95,SV,1635654558
kenora,49.8167,-94.4337,37.38,75,20,6.91,CA,1635654633
mayna,54.1135,47.6231,41.61,93,28,9.4,RU,1635654640
mana,5.6592,-53.7767,78.28,84,67,6.89,GF,1635654641
barcelos,41.5388,-8.6151,66.29,97,100,13.15,PT,1635654641
namatanai,-3.6667,152.4333,83.14,75,100,10.49,PG,1635654642
buala,-8.145,159.5921,84.72,70,80,7.18,SB,1635654642
hecun,36.5333,114.1111,64.31,40,34,12.5,CN,1635654643
faya,18.3851,42.4509,55.92,59,1,8.19,SA,1635654643
namibe,-15.1961,12.1522,65.59,79,54,3.06,AO,1635654644
beyneu,45.3167,55.2,47.84,69,4,2.28,KZ,1635654517
bambous virieux,-20.3428,57.7575,80.22,100,75,3.44,MU,1635654645
khatanga,71.9667,102.5,4.68,96,100,4.63,RU,1635654645
mujiayingzi,42.1167,118.7833,39.43,67,99,6.24,CN,1635654645
zavallya,48.2135,30.0156,38.43,85,0,6.76,UA,1635654646
sal rei,16.1833,-22.9167,77.56,80,100,15.28,CV,1635654647
marzuq,14.4,46.4667,73.36,56,28,6.55,YE,1635654647
dwarka,22.2394,68.9678,84.06,40,7,5.75,IN,1635654647
roma,43.2128,-75.4557,54.82,94,1,0.0,US,1635654648
kimbe,-5.5502,150.1429,84.49,77,100,0.2,PG,1635654649
abu dhabi,24.4667,54.3667,82.42,69,0,2.3,AE,1635654649
yuancheng,36.652,107.7896,52.5,31,11,4.14,CN,1635654649
zakopane,49.299,19.9489,43.74,69,2,6.76,PL,1635654650
deputatskiy,69.3,139.9,-8.93,94,91,4.65,RU,1635654650
rocha,-34.4833,-54.3333,59.88,98,9,5.84,UY,1635654651
fare,-16.7,-151.0167,77.9,72,8,16.71,PF,1635654652
dong hoi,17.4833,106.6,77.77,87,94,9.46,VN,1635654652
arcata,40.8665,-124.0828,58.68,95,90,0.0,US,1635654553
ginda,30.6945,78.4932,62.49,34,0,4.5,IN,1635654653
tuatapere,-46.1333,167.6833,50.9,60,87,14.32,NZ,1635654653
alice springs,-23.7,133.8833,60.35,94,90,16.11,AU,1635654588
abu samrah,35.3029,37.1841,61.86,66,65,4.34,SY,1635654654
chapais,49.7834,-74.8492,44.38,81,100,6.89,CA,1635654654
raga,8.4596,25.678,74.32,76,99,3.0,SS,1635654619
sikar,27.6167,75.15,81.23,19,0,7.96,IN,1635654655
dikson,73.5069,80.5464,6.17,91,93,14.07,RU,1635654656
trinidad,-14.8333,-64.9,78.87,53,6,3.62,BO,1635654656
kavaratti,10.5669,72.642,81.79,74,93,4.16,IN,1635654657
rudnogorsk,57.2639,103.7519,32.97,52,100,8.48,RU,1635654657
sao filipe,14.8961,-24.4956,79.65,74,100,11.03,CV,1635654658
avera,33.194,-82.5271,56.71,89,72,10.78,US,1635654658
qaanaaq,77.484,-69.3632,3.83,68,0,7.31,GL,1635654525
tevaitoa,-16.7833,-151.5,78.01,71,28,16.28,PF,1635654659
sorong,-0.8833,131.25,84.33,70,92,7.99,ID,1635654660
isangel,-19.55,169.2667,84.31,65,64,6.91,VU,1635654660
erdenet,49.0333,104.0833,38.05,43,24,5.77,MN,1635654660
port macquarie,-31.4333,152.9167,69.76,51,74,9.13,AU,1635654661
refojos de basto,41.5132,-7.9952,63.03,99,100,9.01,PT,1635654662
igunga,-4.2833,33.8833,78.19,49,73,9.75,TZ,1635654663
vardo,70.3705,31.1107,40.26,69,100,10.27,NO,1635654663
honjo,36.2333,139.1833,60.67,52,100,1.88,JP,1635654664
san miguel,13.4833,-88.1833,72.25,97,85,1.63,SV,1635654664
guerrero negro,27.9769,-114.0611,64.72,88,0,9.48,MX,1635654665
bajil,15.0584,43.2851,83.82,66,18,7.09,YE,1635654665
yorosso,12.3536,-4.7761,73.96,72,79,5.59,ML,1635654666
hovd,48.0056,91.6419,44.67,29,100,4.7,MN,1635654666
kieta,-6.2167,155.6333,84.42,70,97,6.76,PG,1635654667
mattawa,46.7379,-119.9028,46.85,48,0,28.99,US,1635654531
gizo,-8.103,156.8419,84.92,71,83,8.12,SB,1635654668
augusto correa,-1.0217,-46.635,75.54,91,63,3.8,BR,1635654668
penzance,50.1186,-5.5371,56.41,73,100,28.32,GB,1635654669
karasburg,-28.0167,18.75,67.71,28,0,9.8,NA,1635654669
avenal,36.0041,-120.129,63.82,70,100,3.83,US,1635654644
mangan,27.5167,88.5333,72.99,53,7,7.0,IN,1635654657
nagato,34.3833,131.2,69.75,59,11,9.01,JP,1635654671
esperance,-33.8667,121.9,80.44,39,3,4.61,AU,1635654671
zhangye,38.9342,100.4517,54.03,21,32,2.98,CN,1635654672
cedar city,37.6775,-113.0619,56.39,66,1,5.75,US,1635654673
roebourne,-20.7833,117.1333,82.36,42,0,14.9,AU,1635654636
pangnirtung,66.1451,-65.7125,29.62,98,100,7.85,CA,1635654673
mokhotlong,-29.2894,29.0675,48.38,48,0,0.47,LS,1635654674
jijiga,9.35,42.8,66.33,56,88,6.6,ET,1635654675
coahuayana,18.7333,-103.6833,75.7,94,7,2.62,MX,1635654676
aitape,-3.1374,142.3475,84.92,75,65,6.98,PG,1635654676
kilindoni,-7.9139,39.6668,80.24,74,28,10.76,TZ,1635654677
sibolga,1.7427,98.7792,78.42,90,100,6.4,ID,1635654677
joshimath,30.5667,79.5667,62.67,23,0,5.88,IN,1635654678
torbay,47.6666,-52.7314,38.39,81,1,2.3,CA,1635654632
hithadhoo,-0.6,73.0833,81.99,78,100,20.02,MV,1635654678
richmond,37.5538,-77.4603,53.58,90,20,9.22,US,1635654399
jumla,29.2747,82.1838,60.39,33,1,5.48,NP,1635654679
chuy,-33.6971,-53.4616,63.79,94,17,8.75,UY,1635654680
linhai,28.85,121.1167,76.93,38,40,2.82,CN,1635654680
kisangani,0.5167,25.2,71.96,91,100,2.62,CD,1635654681
sun valley,39.5963,-119.776,57.58,56,75,1.01,US,1635654681
krasnoselkup,65.7,82.4667,11.79,94,100,10.22,RU,1635654682
aklavik,68.2191,-135.0107,20.23,92,20,5.75,CA,1635654682
nchelenge,-9.3451,28.734,76.24,70,76,4.76,ZM,1635654683
hervey bay,-25.2986,152.8535,80.71,69,47,28.7,AU,1635654683
harper,4.375,-7.7169,75.76,90,60,4.25,LR,1635654577
algiers,36.7525,3.042,69.62,49,40,6.91,DZ,1635654599
mehriz,31.5917,54.4318,54.1,28,2,2.3,IR,1635654684
garmsar,35.2182,52.3409,65.46,45,23,4.05,IR,1635654685
itoman,26.1247,127.6694,81.37,58,20,13.8,JP,1635654685
zaragoza,41.6561,-0.8773,63.05,84,0,6.91,ES,1635654686
coquimbo,-29.9533,-71.3436,55.13,94,90,3.44,CL,1635654687
nome,64.5011,-165.4064,17.67,68,1,4.61,US,1635654687
alta floresta,-9.8756,-56.0861,70.16,93,41,1.59,BR,1635654688
kattivakkam,13.2167,80.3167,82.49,72,100,11.56,IN,1635654688
esso,55.9333,158.7,21.52,91,91,9.26,RU,1635654689
baft,29.234,56.6057,61.12,24,41,3.87,IR,1635654689
hambantota,6.1241,81.1185,84.54,84,40,2.3,LK,1635654690
yelizovo,53.1873,158.3805,42.94,65,40,6.71,RU,1635654690
molteno,-31.3968,26.3625,54.95,56,3,1.63,ZA,1635654690
bengkulu,-3.8004,102.2655,82.74,77,100,8.14,ID,1635654691
parkes,-33.1333,148.1833,76.35,21,0,7.11,AU,1635654691
sitka,57.0531,-135.33,44.49,65,40,3.44,US,1635654692
pailon,-17.65,-62.75,76.1,45,96,1.57,BO,1635654692
souillac,-20.5167,57.5167,80.37,100,75,3.44,MU,1635654693
baykit,61.67,96.37,20.44,82,100,11.92,RU,1635654693
severo-yeniseyskiy,60.3725,93.0408,18.99,78,100,11.43,RU,1635654694
marawi,7.9986,124.2928,75.85,87,100,5.06,PH,1635654694
tautira,-17.7333,-149.15,80.62,74,38,16.75,PF,1635654695
sur,22.5667,59.5289,86.9,42,5,14.29,OM,1635654695
cherskiy,68.75,161.3,1.58,97,100,5.84,RU,1635654696
westport,41.1415,-73.3579,58.77,96,90,1.01,US,1635654696
medzilaborce,49.2719,21.9007,49.82,82,0,5.57,SK,1635654697
sabang,5.8933,95.3214,81.43,77,100,15.59,ID,1635654697
faanui,-16.4833,-151.75,78.28,70,22,15.68,PF,1635654698
aykhal,66.0,111.5,11.7,90,100,23.51,RU,1635654698
kumi,36.1136,128.336,65.88,41,0,2.48,KR,1635654699
george,-33.963,22.4617,56.75,94,90,4.61,ZA,1635654699
pivijay,10.4617,-74.6162,76.37,91,100,2.86,CO,1635654700
virginia beach,36.8529,-75.978,57.22,76,1,8.05,US,1635654569
moengo,5.6167,-54.4,73.29,93,68,2.08,SR,1635654701
oussouye,12.485,-16.5469,76.01,81,100,3.83,SN,1635654701
diapaga,12.0708,1.7889,75.9,28,56,0.45,BF,1635654702
jalu,29.0331,21.5482,67.98,36,62,9.57,LY,1635654702
mount hagen,-5.8581,144.2274,75.96,57,40,6.91,PG,1635654703
mbour,14.422,-16.9638,79.65,72,96,8.32,SN,1635654703
fremont,37.5483,-121.9886,59.85,83,75,1.01,US,1635654677
alofi,-19.0595,-169.9187,78.69,65,100,10.36,NU,1635654704
arani,12.6667,79.2833,83.84,71,97,9.8,IN,1635654704
lyubech,51.7026,30.6569,39.06,89,0,7.87,UA,1635654705
clyde river,70.4692,-68.5914,28.92,95,100,26.28,CA,1635654705
machali,-34.1833,-70.6667,62.83,47,100,1.3,CL,1635654706
colares,38.7992,-9.4469,70.32,87,85,5.99,PT,1635654706
izvoarele sucevei,47.75,25.1833,28.99,28,0,3.51,RO,1635654707
atambua,-9.1061,124.8925,84.54,62,64,5.3,ID,1635654707
mar del plata,-38.0023,-57.5575,57.09,85,100,1.01,AR,1635654513
fulton,33.7668,-84.4499,54.9,89,90,1.01,US,1635654708
komsomolskiy,40.4272,71.7189,50.72,53,100,4.61,UZ,1635654709
bestobe,52.4994,73.0975,36.7,89,100,19.15,KZ,1635654709
burnie,-41.0667,145.9167,66.92,56,90,15.7,AU,1635654710
tubinskiy,52.8892,58.2225,41.14,96,100,8.41,RU,1635654710
yeppoon,-23.1333,150.7333,89.38,58,44,15.23,AU,1635654711
vestmannaeyjar,63.4427,-20.2734,42.94,72,98,9.91,IS,1635654593
santa rosa,14.3122,121.1114,91.38,61,22,14.67,PH,1635654711
omboue,-1.5746,9.2618,73.76,97,100,0.13,GA,1635654712
saint peters,38.8003,-90.6265,49.71,92,1,1.01,US,1635654502
mungwi,-10.1732,31.3694,75.52,42,26,3.8,ZM,1635654713
yerbogachen,61.2767,108.0108,21.51,61,86,11.39,RU,1635654713
roald,62.5833,6.1333,57.25,66,75,4.61,NO,1635654714
breznice,49.5576,13.9506,46.35,100,76,2.86,CZ,1635654714
bethal,-26.4579,29.4655,51.55,87,0,5.61,ZA,1635654556
abbeville,50.1,1.8333,51.49,87,100,13.62,FR,1635654696
caravelas,-17.7125,-39.2481,71.71,90,89,5.41,BR,1635654715
beysehir,37.6773,31.7246,52.48,63,100,4.29,TR,1635654716
luderitz,-26.6481,15.1594,58.55,89,23,1.39,NA,1635654716
te anau,-45.4167,167.7167,54.05,47,45,5.5,NZ,1635654717
evensk,61.95,159.2333,11.01,73,100,11.27,RU,1635654717
nishihara,26.1842,127.7558,80.65,59,20,11.5,JP,1635654718
novopokrovka,49.8425,36.5477,30.58,78,0,4.72,UA,1635654719
baoqing,46.3317,132.2111,44.42,45,99,9.01,CN,1635654719
suoyarvi,62.0833,32.35,40.14,96,100,7.31,RU,1635654720
porto santo,33.072,-16.3415,70.18,83,20,8.05,PT,1635654720
saint-joseph,-21.3667,55.6167,78.48,71,13,5.61,RE,1635654721
natal,-5.795,-35.2094,77.22,83,20,5.75,BR,1635654721
eydhafushi,5.1033,73.0708,82.76,66,27,13.8,MV,1635654722
longyearbyen,78.2186,15.6401,26.44,74,75,13.8,SJ,1635654723
uray,60.1247,64.7758,17.98,90,73,0.87,RU,1635654723
mabaruma,8.2,-59.7833,73.15,93,100,2.08,GY,1635654723
sarangani,5.4033,125.4636,83.88,74,100,14.47,PH,1635654724
bay roberts,47.5999,-53.2648,39.15,71,0,2.86,CA,1635654725
illapel,-31.6308,-71.1653,65.07,60,6,1.01,CL,1635654725
vanimo,-2.6741,141.3028,85.89,67,98,5.57,PG,1635654726
lata,40.1629,-8.3327,67.93,97,100,9.55,PT,1635654726
port blair,11.6667,92.75,84.72,71,100,9.22,IN,1635654620
sebezh,56.2955,28.4654,42.48,83,18,10.49,RU,1635654727
road town,18.4167,-64.6167,79.0,71,9,12.86,VG,1635654727
acarau,-2.8856,-40.12,78.69,81,60,10.02,BR,1635654728
mogadishu,2.0371,45.3438,80.47,83,20,9.22,SO,1635654728
senador canedo,-16.7081,-49.0931,72.73,68,75,3.44,BR,1635654729
saryozek,44.3583,77.9753,47.77,56,100,9.17,KZ,1635654729
port augusta,-32.5,137.7667,81.72,14,100,10.36,AU,1635654730
nelson bay,-32.7167,152.15,70.09,55,28,4.0,AU,1635654731
codrington,-38.2667,141.9667,58.78,70,0,12.44,AU,1635654599
lashio,22.9333,97.75,76.06,74,41,2.17,MM,1635654731
parainen,60.3067,22.301,48.65,89,100,13.51,FI,1635654732
brae,60.3964,-1.353,49.91,77,73,21.9,GB,1635654732
ust-ilimsk,58.0006,102.6619,29.52,43,97,8.05,RU,1635654733
revelstoke,50.9832,-118.2023,28.42,93,1,0.0,CA,1635654733
porto walter,-8.2686,-72.7439,74.59,77,96,1.99,BR,1635654734
bronnoysund,65.4625,12.1997,53.6,58,75,27.63,NO,1635654734
tashla,51.7716,52.7427,41.27,91,64,6.67,RU,1635654735
viedma,-40.8135,-62.9967,51.01,69,100,16.28,AR,1635654735
mokhsogollokh,61.4681,128.9203,18.3,79,83,7.02,RU,1635654736
port hardy,50.6996,-127.4199,46.4,100,1,3.44,CA,1635654632
mahebourg,-20.4081,57.7,80.26,100,75,3.44,MU,1635654736
sao joao da barra,-21.6403,-41.0511,70.5,92,98,4.94,BR,1635654737
esna,25.2934,32.554,73.42,25,100,9.35,EG,1635654737
comodoro rivadavia,-45.8667,-67.5,37.26,93,20,5.75,AR,1635654738
semiletka,55.3603,54.6153,42.58,97,100,8.9,RU,1635654738
boa vista,2.8197,-60.6733,82.38,69,0,2.3,BR,1635654563
moree,-29.4667,149.85,82.42,26,2,10.36,AU,1635654739
mbaiki,3.8678,17.9892,69.37,97,86,1.05,CF,1635654739
gerash,27.6652,54.1371,62.74,40,98,1.74,IR,1635654454
delaware,39.0004,-75.4999,58.96,91,1,5.75,US,1635654740
oxapampa,-10.5775,-75.4017,57.79,93,70,3.74,PE,1635654741
nogales,31.3086,-110.9422,66.69,29,1,6.91,MX,1635654741
huarmey,-10.0681,-78.1522,63.09,86,82,5.3,PE,1635654742
koungou,-12.7336,45.2042,80.31,74,75,8.05,YT,1635654742
manokwari,-0.8667,134.0833,82.8,75,52,7.4,ID,1635654743
raudeberg,61.9875,5.1352,52.47,86,99,5.01,NO,1635654743
moose factory,51.2585,-80.6094,39.2,93,90,4.61,CA,1635654744
enid,36.3956,-97.8784,53.76,70,1,0.0,US,1635654744
vista hermosa,19.5167,-99.2167,62.55,41,20,4.61,MX,1635654745
ketchikan,55.3422,-131.6461,34.27,100,1,0.0,US,1635654745
kavieng,-2.5744,150.7967,83.53,75,95,12.24,PG,1635654670
kasempa,-13.4584,25.8338,77.05,39,96,2.66,ZM,1635654746
san jose,37.3394,-121.895,59.27,80,75,6.91,US,1635654543
nueva guinea,11.6876,-84.4562,72.72,95,100,10.02,NI,1635654747
gimli,50.6336,-96.9907,39.43,70,10,4.61,CA,1635654748
puerto baquerizo moreno,-0.9,-89.6,69.31,88,96,9.46,EC,1635654748
vanavara,60.34,102.2797,23.59,50,57,11.95,RU,1635654749
trelew,-43.249,-65.3051,43.74,73,2,10.69,AR,1635654749
laplace,30.0666,-90.4801,59.99,91,1,0.0,US,1635654750
tacuarembo,-31.7333,-55.9833,63.54,96,0,5.66,UY,1635654750
oranjemund,-28.55,16.4333,59.67,93,24,0.92,NA,1635654751
smithers,54.7804,-127.1743,26.92,93,1,0.0,CA,1635654632
skelleftea,64.7507,20.9528,32.36,100,76,2.3,SE,1635654752
masaurhi,25.3509,85.0342,75.79,47,2,4.18,IN,1635654752
ambilobe,-13.2,49.05,84.58,57,6,2.77,MG,1635654753
auki,-8.7676,160.7034,86.56,61,63,3.69,SB,1635654753
grand island,40.925,-98.342,46.18,73,1,7.0,US,1635654505
carballo,43.213,-8.691,66.54,91,97,13.11,ES,1635654754
constanza,47.6603,9.1758,49.71,97,67,3.0,DE,1635654755
arlit,18.7369,7.3853,76.69,23,18,4.99,NE,1635654755
chernyakhovsk,54.6335,21.8156,47.3,66,6,12.44,RU,1635654756
kot samaba,28.5522,70.4684,89.96,10,0,13.24,PK,1635654756
beringovskiy,63.05,179.3167,8.82,92,100,19.08,RU,1635654757
salalah,17.0151,54.0924,80.69,36,0,4.61,OM,1635654757
roblin,51.23,-101.3565,28.85,81,94,9.08,CA,1635654758
midlothian,32.4824,-96.9945,62.85,50,1,1.99,US,1635654758
noumea,-22.2763,166.4572,82.38,67,52,5.5,NC,1635654759
angoram,-4.0625,144.0661,86.4,67,86,5.77,PG,1635654759
rawson,-43.3002,-65.1023,45.63,71,7,14.65,AR,1635654760
nanortalik,60.1432,-45.2371,34.07,73,12,10.38,GL,1635654760
maracas,-13.4411,-40.4308,61.34,91,37,4.05,BR,1635654761
vila,42.0304,-8.1588,56.28,95,100,7.74,PT,1635654761
port pirie,-33.1833,138.0167,73.49,21,43,7.67,AU,1635654761
puri,19.8,85.85,82.92,67,91,8.57,IN,1635654502
redlands,34.0556,-117.1825,72.36,73,1,3.44,US,1635654666
merke,42.8728,73.1786,50.02,53,99,5.12,KZ,1635654762
oloron-sainte-marie,43.1944,-0.6107,53.17,70,100,4.97,FR,1635654763
pedasi,7.5333,-80.0333,76.06,84,100,4.83,PA,1635654763
tamandare,-8.7597,-35.1047,75.85,77,22,6.46,BR,1635654764
date,42.4681,140.8681,54.5,68,100,1.97,JP,1635654764
la rioja,42.25,-2.5,48.49,80,100,6.31,ES,1635654765
sioux lookout,50.1001,-91.917,37.47,87,40,9.22,CA,1635654765
isla mujeres,21.2311,-86.731,68.16,64,9,8.99,MX,1635654670
ambanja,-13.6833,48.45,83.8,54,16,1.48,MG,1635654766
udachnyy,66.4167,112.4,20.95,83,98,21.99,RU,1635654767
juarez,31.7333,-106.4833,70.25,22,1,5.75,MX,1635654767
scottsboro,34.6723,-86.0341,54.86,96,100,5.79,US,1635654768
atar,20.5169,-13.0499,78.24,22,100,7.76,MR,1635654768
hualmay,-11.0964,-77.6139,62.6,85,92,5.7,PE,1635654768
sao felix do xingu,-6.6447,-51.995,71.74,85,45,0.49,BR,1635654769
champerico,14.3,-91.9167,81.36,82,100,3.58,GT,1635654770
avare,-23.0986,-48.9258,62.13,93,100,7.0,BR,1635654770
maniitsoq,65.4167,-52.9,36.0,92,100,23.58,GL,1635654771
mitsamiouli,-11.3847,43.2844,80.89,65,20,17.27,KM,1635654543
laguna,38.421,-121.4238,63.23,79,90,3.0,US,1635654749
padang,-0.9492,100.3543,84.25,91,100,5.46,ID,1635654772
santa maria,-29.6842,-53.8069,64.67,93,41,4.79,BR,1635654772
sorland,67.667,12.6934,48.24,89,83,10.54,NO,1635654773
katsuura,35.1333,140.3,60.82,88,97,4.18,JP,1635654773
vrbove,48.6197,17.7226,50.05,62,20,10.36,SK,1635654774
lagoa,39.05,-27.9833,68.81,89,100,10.65,PT,1635654774
ust-ishim,57.6935,71.1665,24.76,83,62,7.2,RU,1635654775
vavuniya,8.7514,80.4971,80.62,87,100,3.96,LK,1635654775
kem,64.9555,34.5793,40.35,93,63,10.98,RU,1635654776
sambava,-14.2667,50.1667,78.93,71,40,4.97,MG,1635654776
kokemaki,61.2565,22.3564,46.76,96,100,6.35,FI,1635654777
preobrazheniye,42.9019,133.9064,57.18,66,16,4.9,RU,1635654777
isabela,6.7085,121.9711,89.65,66,90,5.12,PH,1635654778
muleba,-1.8397,31.6544,64.67,73,69,5.79,TZ,1635654778
atikokan,48.7555,-91.6216,39.63,69,100,11.01,CA,1635654779
yinchuan,38.4681,106.2731,50.16,31,0,3.49,CN,1635654779
uzyn,49.8262,30.4149,38.05,84,0,7.27,UA,1635654780
abu zabad,12.35,29.25,84.22,35,83,4.97,SD,1635654780
turbat,26.0023,63.044,89.08,11,1,16.96,PK,1635654781
saint-louis,16.3333,-15.0,81.61,36,87,6.06,SN,1635654781
ponta delgada,37.7333,-25.6667,74.5,94,75,16.11,PT,1635654782
conde,-7.2597,-34.9075,74.66,83,0,3.44,BR,1635654783
poum,-20.2333,164.0167,76.73,71,1,7.56,NC,1635654783
tessalit,20.1986,1.0114,78.57,15,30,6.44,ML,1635654784
penhold,52.1334,-113.8687,24.6,63,1,3.44,CA,1635654784
vredendal,-31.6683,18.5012,66.43,63,97,1.36,ZA,1635654785
red wing,44.5625,-92.5338,50.65,79,90,1.01,US,1635654785
san vicente,-26.6167,-54.1333,61.23,98,100,2.35,AR,1635654786
motygino,58.1831,94.7592,28.67,49,99,7.67,RU,1635654786
sumbawanga,-7.9667,31.6167,60.6,82,40,0.0,TZ,1635654787
ugep,5.8086,8.0812,73.76,96,99,2.51,NG,1635654787
mirpur khas,25.5251,69.0159,86.68,20,7,7.25,PK,1635654541
lebu,-37.6167,-73.65,51.1,93,100,7.23,CL,1635654788
bilibino,68.0546,166.4372,-11.69,100,99,1.23,RU,1635654789
senneterre,48.3835,-77.2328,44.82,87,99,3.76,CA,1635654789
yumen,40.2833,97.2,49.95,28,72,5.01,CN,1635654790
aiken,33.5835,-81.5998,55.69,95,40,10.36,US,1635654631
drumnadrochit,57.3344,-4.4799,38.89,87,95,2.37,GB,1635654791
alugan,12.2188,125.4808,85.23,63,72,9.98,PH,1635654791
kalmunai,7.4167,81.8167,84.33,71,80,3.31,LK,1635654792
waddan,29.1614,16.139,64.53,42,28,4.85,LY,1635654792
gao,16.6362,1.637,79.92,15,49,8.72,ML,1635654793
ilebo,-4.3167,20.5833,70.47,99,100,1.25,CD,1635654793
shenkursk,62.1091,42.896,40.71,95,100,7.9,RU,1635654794
lakatoro,-16.0999,167.4164,82.18,70,20,6.62,VU,1635654794
elmadag,39.9208,33.2308,44.35,68,72,3.4,TR,1635654794
izumo,35.3667,132.7667,69.75,60,40,11.5,JP,1635654795
santo angelo,-28.2992,-54.2631,66.52,88,0,6.91,BR,1635654795
chirongui,-12.9319,45.1483,80.53,75,2,10.11,YT,1635654796
kautokeino,69.0125,23.0412,23.04,95,99,3.09,NO,1635654796
kloulklubed,7.0419,134.2556,82.9,76,100,8.7,PW,1635654665
usinsk,65.9939,57.5281,8.44,94,93,9.93,RU,1635654797
baruun-urt,46.6806,113.2792,35.13,15,2,8.68,MN,1635654798
morant bay,17.8815,-76.4093,82.02,85,97,5.64,JM,1635654798
olafsvik,64.8945,-23.7142,38.98,75,58,22.7,IS,1635654799
djambala,-2.5447,14.7533,66.72,95,91,3.76,CG,1635654799
babu,24.4167,111.5167,63.93,97,100,2.98,CN,1635654800
paamiut,61.994,-49.6678,32.34,97,100,3.31,GL,1635654800
dombas,62.0696,9.1235,41.56,99,100,10.76,NO,1635654801
goderich,43.7501,-81.7165,48.9,93,100,4.61,CA,1635654801
fairbanks,64.8378,-147.7164,39.54,63,1,9.22,US,1635654802
belle fourche,44.6714,-103.8522,40.5,73,99,13.8,US,1635654802
alakurtti,66.9672,30.3491,34.63,99,100,2.53,RU,1635654803
opelousas,30.5335,-92.0815,55.29,71,1,0.0,US,1635654584
adrar,20.5022,-10.0711,74.79,18,98,11.07,MR,1635654804
houma,29.5958,-90.7195,55.99,94,0,2.57,US,1635654804
omsukchan,62.5333,155.8,0.01,97,100,7.43,RU,1635654805
pedernales,18.0384,-71.744,78.78,69,8,3.49,DO,1635654805
toba tek singh,30.9743,72.4827,84.49,16,0,2.42,PK,1635654806
ordu,40.9086,37.6845,39.7,80,80,3.85,TR,1635654806
jackson,42.4165,-122.8345,55.27,92,90,0.0,US,1635654630
alenquer,-1.9417,-54.7383,75.54,89,96,3.42,BR,1635654807
richards bay,-28.783,32.0377,67.23,71,7,7.83,ZA,1635654808
matagami,49.7502,-77.6328,39.31,81,90,4.61,CA,1635654754
bubaque,11.2833,-15.8333,79.93,76,100,5.73,GW,1635654649
whitianga,-36.8333,175.7,63.64,60,100,11.27,NZ,1635654591
bo rai,12.5728,102.5371,91.11,76,99,1.77,TH,1635654809
pilar,-9.5972,-35.9567,75.13,92,20,2.17,BR,1635654809
puerto colombia,10.9878,-74.9547,75.29,78,100,3.33,CO,1635654810
kendari,-3.945,122.4989,88.97,57,78,8.14,ID,1635654810
skoghall,59.3232,13.4655,46.96,100,90,11.5,SE,1635654614
ganzhou,28.8184,115.4327,72.03,48,100,3.42,CN,1635654650
cabedelo,-6.9811,-34.8339,75.87,75,25,10.27,BR,1635654811
jian,27.1172,114.9793,59.61,86,100,3.62,CN,1635654812
chiredzi,-21.05,31.6667,69.44,67,0,8.63,ZW,1635654812
tezu,27.9167,96.1667,81.72,36,55,4.32,IN,1635654813
rivadavia,-33.1905,-68.4608,64.87,59,89,18.41,AR,1635654813
amazar,53.858,120.875,34.03,33,37,4.9,RU,1635654814
vao,-22.6667,167.4833,72.37,68,76,4.23,NC,1635654814
manzhouli,49.6,117.4333,37.36,21,4,6.4,CN,1635654815
port-cartier,50.0334,-66.8654,44.82,77,81,7.78,CA,1635654815
kropotkin,45.4375,40.5756,45.75,83,0,15.1,RU,1635654815
matara,5.9485,80.5353,85.01,68,34,3.87,LK,1635654816
oistins,13.0667,-59.5333,79.16,76,33,12.15,BB,1635654817
coruripe,-10.1256,-36.1756,74.48,85,19,7.7,BR,1635654817
barstow,34.8986,-117.0228,70.79,36,99,8.21,US,1635654586
chilapa,22.032,-105.2317,73.49,93,0,2.59,MX,1635654818
nidadavole,16.9167,81.6667,84.51,69,85,7.67,IN,1635654818
nouadhibou,20.931,-17.0347,67.98,88,20,10.36,MR,1635654819
porto novo,6.4965,2.6036,80.42,92,99,4.34,BJ,1635654819
peruibe,-24.32,-46.9983,68.52,95,100,8.08,BR,1635654552
chau doc,10.7,105.1167,89.58,58,94,11.81,VN,1635654820
varna,43.2167,27.9167,53.74,87,90,8.05,BG,1635654820
grand-lahou,5.1367,-5.0242,76.03,91,59,5.82,CI,1635654821
talnakh,69.4865,88.3972,10.74,96,100,4.99,RU,1635654792
santo augusto,-27.8508,-53.7772,63.86,87,100,6.76,BR,1635654779
lagos,6.5833,3.75,80.92,94,100,2.84,NG,1635654605
broken hill,-31.95,141.4333,71.31,17,100,13.8,AU,1635654822
sechura,-5.5569,-80.8222,63.59,83,24,11.18,PE,1635654823
maryville,35.7565,-83.9705,55.65,96,90,1.99,US,1635654823
espinosa,-14.9261,-42.8192,70.68,76,74,5.66,BR,1635654824
ostrovnoy,68.0531,39.5131,33.6,92,97,3.02,RU,1635654824
san ramon,37.7799,-121.978,58.21,87,40,1.99,US,1635654733
bagan,54.1001,77.6646,34.12,98,100,14.34,RU,1635654825
